[
{"name":"沙坡头景区","englishName":"Shapotou","coverImage":"https://via.placeholder.com/500x350/DEB887/FFFFFF?text=沙坡头","images":["https://via.placeholder.com/750x500/DEB887/FFFFFF?text=沙坡头1","https://via.placeholder.com/750x500/D2691E/FFFFFF?text=沙坡头2"],"grade":"5A","category":"自然","region":"中卫市","address":"宁夏中卫市沙坡头区迎水桥镇","description":"沙坡头景区位于宁夏中卫市城区以西20公里的腾格里沙漠东南边缘处，这里集大漠、黄河、高山、绿洲为一处，具西北风光之雄奇，兼江南景色之秀美。这里有着中国最大的天然滑沙场，有横跨黄河的天下黄河第一索，有黄河文化代表古老水车，有黄河上最古老的运输工具羊皮筏子。景区可以骑骆驼穿越腾格里沙漠，可以坐越野车沙海冲浪，咫尺之间可以领略大漠孤烟、长河落日的奇观。","features":["沙漠滑沙","黄河漂流","骑骆驼","沙海冲浪","羊皮筏子"],"openTime":"08:00-18:00","ticketPrice":80,"phone":"0955-7689333","latitude":37.5167,"longitude":105.0167,"views":15000,"rating":4.8,"recommend":true,"tags":["沙漠","黄河","必打卡","5A级景区"]},
{"name":"西夏王陵","englishName":"Western Xia Imperial Tombs","coverImage":"https://via.placeholder.com/500x350/8B4513/FFFFFF?text=西夏王陵","images":["https://via.placeholder.com/750x500/8B4513/FFFFFF?text=西夏王陵1","https://via.placeholder.com/750x500/A0522D/FFFFFF?text=西夏王陵2"],"grade":"4A","category":"历史","region":"银川市","address":"宁夏银川市西夏区贺兰山东麓","description":"西夏王陵又称西夏帝陵、西夏皇陵，是西夏历代帝王陵墓所在地，有东方金字塔之称。陵区东西宽约4.5公里，南北长约10公里，总面积约50平方公里。这里分布着9座帝王陵和200多座陪葬墓。西夏王陵是中国现存规模最大、地面遗迹保存最完整的帝王陵园之一，也是研究西夏历史的重要实物资料。","features":["历史遗迹","西夏文化","陵墓建筑","博物馆"],"openTime":"08:30-18:00","ticketPrice":60,"phone":"0951-5668987","latitude":38.4833,"longitude":106,"views":12000,"rating":4.6,"recommend":true,"tags":["历史","西夏","文化遗产","陵墓"]},
{"name":"贺兰山岩画","englishName":"Helan Mountain Rock Paintings","coverImage":"https://via.placeholder.com/500x350/CD853F/FFFFFF?text=贺兰山岩画","images":["https://via.placeholder.com/750x500/CD853F/FFFFFF?text=贺兰山岩画1"],"grade":"4A","category":"文化","region":"银川市","address":"宁夏银川市贺兰县贺兰山东麓","description":"贺兰山岩画是中国游牧民族的艺术画廊，记录了远古先民放牧、狩猎、祭祀、征战、娱舞、交媾等生活场景，展现了贺兰山一带的游牧文化和草原文化。岩画题材内容丰富，表现形式多样，包括动物、人物、符号等，其中以人面像岩画最具特色。贺兰山岩画被誉为刻在石头上的史诗，是中国古代艺术的瑰宝。","features":["岩画艺术","远古文化","自然风光","考古"],"openTime":"09:00-17:30","ticketPrice":70,"phone":"0951-1234567","latitude":38.6833,"longitude":106.1333,"views":8000,"rating":4.7,"recommend":true,"tags":["岩画","文化","历史","艺术"]},
{"name":"水洞沟遗址","englishName":"Shuidonggou Site","coverImage":"https://via.placeholder.com/500x350/B8860B/FFFFFF?text=水洞沟","images":["https://via.placeholder.com/750x500/B8860B/FFFFFF?text=水洞沟1"],"grade":"5A","category":"历史","region":"银川市","address":"宁夏银川市灵武市临河镇","description":"水洞沟是中国最早发掘的旧石器时代文化遗址，被誉为中国史前考古的发祥地。这里保存了距今3万年前的旧石器时代文化遗址，以及保存完好的明代长城、藏兵洞等古代军事防御体系。水洞沟景区集旧石器文化、明长城、古洞穴、古窑洞、古藏兵洞、古峡谷等于一体，是中国唯一保存最为完整的古代军事防御体系大观园。","features":["旧石器遗址","明长城","藏兵洞","古峡谷"],"openTime":"08:30-18:00","ticketPrice":100,"phone":"0951-7612345","latitude":38.2167,"longitude":106.4167,"views":10000,"rating":4.7,"recommend":true,"tags":["历史","考古","长城","5A级景区"]},
{"name":"镇北堡西部影城","englishName":"Zhenbeipu Western Film City","coverImage":"https://via.placeholder.com/500x350/DAA520/FFFFFF?text=镇北堡","images":["https://via.placeholder.com/750x500/DAA520/FFFFFF?text=镇北堡1"],"grade":"5A","category":"文化","region":"银川市","address":"宁夏银川市西夏区镇北堡镇","description":"镇北堡西部影城是中国十大影视基地之一，以其古朴、原始、粗犷、荒凉、民间化为特色，是大话西游、红高粱、新龙门客栈等百余部影视作品的取景地。景区内保留了原始古朴的西北民居建筑，游客可以穿上古装，体验穿越的感觉，感受影视文化的魅力。","features":["影视拍摄","古装体验","民俗文化","摄影"],"openTime":"08:00-18:00","ticketPrice":80,"phone":"0951-2136060","latitude":38.5167,"longitude":106.0833,"views":18000,"rating":4.9,"recommend":true,"tags":["影视","5A级景区","大话西游","必打卡"]},
{"name":"青铜峡黄河大峡谷","englishName":"Qingtongxia Yellow River Grand Canyon","coverImage":"https://via.placeholder.com/500x350/4682B4/FFFFFF?text=黄河大峡谷","images":["https://via.placeholder.com/750x500/4682B4/FFFFFF?text=黄河大峡谷1"],"grade":"4A","category":"自然","region":"吴忠市","address":"宁夏吴忠市青铜峡市","description":"青铜峡黄河大峡谷被誉为黄河中上游第一峡谷，峡谷全长10公里，两岸悬崖峭壁，奇峰林立，风光雄奇壮美。峡谷内有黄河大坝、黄河铁桥、一百零八塔、中华黄河坛等景点，是集峡谷观光、黄河文化、水利工程于一体的综合性旅游景区。游客可以乘船游览黄河，感受黄河峡谷的壮美。","features":["峡谷风光","黄河文化","水利工程","乘船游览"],"openTime":"08:30-17:30","ticketPrice":100,"phone":"0953-3051234","latitude":38.0167,"longitude":106.0167,"views":7000,"rating":4.5,"recommend":true,"tags":["峡谷","黄河","自然风光"]},
{"name":"六盘山红军长征景区","englishName":"Liupan Mountain Red Army Long March Scenic Area","coverImage":"https://via.placeholder.com/500x350/228B22/FFFFFF?text=六盘山","images":["https://via.placeholder.com/750x500/228B22/FFFFFF?text=六盘山1"],"grade":"4A","category":"历史","region":"固原市","address":"宁夏固原市泾源县六盘山镇","description":"六盘山红军长征景区是全国重点文物保护单位、全国爱国主义教育示范基地。1935年10月，毛泽东率领中央红军翻越六盘山，写下了清平乐·六盘山的壮丽诗篇。景区内有红军长征纪念馆、六盘山纪念碑、红军小道等景点，是进行革命传统教育和红色旅游的重要场所。","features":["红色教育","长征文化","自然风光","徒步"],"openTime":"08:30-17:00","ticketPrice":60,"phone":"0954-5678901","latitude":35.6333,"longitude":106.2333,"views":6000,"rating":4.6,"recommend":true,"tags":["红色旅游","长征","历史","教育"]},
{"name":"须弥山石窟","englishName":"Xumishan Grottoes","coverImage":"https://via.placeholder.com/500x350/8FBC8F/FFFFFF?text=须弥山","images":["https://via.placeholder.com/750x500/8FBC8F/FFFFFF?text=须弥山1"],"grade":"4A","category":"文化","region":"固原市","address":"宁夏固原市原州区须弥山镇","description":"须弥山石窟是中国十大石窟之一，始建于北魏时期，距今已有1500多年的历史。现存有162个洞窟，500余尊造像，其中第5窟的大佛高达20.6米，是须弥山石窟的标志性造像。须弥山石窟以其精美的造像艺术和深厚的历史文化内涵，成为研究中国佛教艺术和中外文化交流的重要资料。","features":["石窟艺术","佛教文化","造像","历史"],"openTime":"09:00-17:00","ticketPrice":60,"phone":"0954-2345678","latitude":36.25,"longitude":106.1667,"views":5000,"rating":4.5,"recommend":true,"tags":["石窟","佛教","文化","艺术"]}
]
